 { "friendData": [{ "id": 1, 
  "followed":false, 
  "Name": "Vasya Vasin", 
  "status":"I good jobber", 
  "location": {"city":"new-york", "country":"Usa"} },
          
  { "id": 2, 
  "followed":false, 
  "Name": "Petya Petrov", 
  "status":"I bad jobber", 
  "location": {"city":"Kopengagen", "country":"Dania"} },
          
  { "id": 3, 
  "followed":true, 
  "Name": "Sasha Sashov", 
  "status":"I good drink", 
  "location": {"city":"Krakow", "country":"Poland"} },
          
  { "id": 4, 
  "followed":false, 
  "Name": "Masha Masanova",
   "status":"I good boxer", 
  "location": {"city":"PARIS", "country":"France"} },
          
  { "id": 5, 
  "followed":true, 
  "Name": "Dasha Dashkova", 
  "status":"I good Tobber", 
  "location": {"city":"London", "country":"England"} },
          
  { "id": 6, "followed":false,
   "Name": "Kasha Malasha",
   "status":"I good Lobber", 
  "location": {"city":"Gastuk", "country":"India"} },
                 
   { "id": 7, "followed":false,
   "Name": "Kasha Malasha",
   "status":"I good Lobber", 
  "location": {"city":"Gastuk", "country":"India"} },
                 
    { "id": 8, "followed":false,
   "Name": "Kasha Malasha",
   "status":"I good Lobber", 
  "location": {"city":"Gastuk", "country":"India"} },
                 
    { "id": 9, "followed":false,
   "Name": "Kasha Malasha",
   "status":"I good Lobber", 
  "location": {"city":"Gastuk", "country":"India"} },
                 
    { "id": 10, "followed":false,
   "Name": "Kasha Malasha",
   "status":"I good Lobber", 
  "location": {"city":"Gastuk", "country":"India"} },
                 
    { "id": 11, "followed":false,
   "Name": "Kasha Malasha",
   "status":"I good Lobber", 
  "location": {"city":"Gastuk", "country":"India"} },
                 
     { "id": 12, "followed":false,
   "Name": "Kasha Malasha",
   "status":"I good Lobber", 
  "location": {"city":"Gastuk", "country":"India"} },
                 
    { "id": 13, "followed":false,
   "Name": "Kasha Malasha",
   "status":"I good Lobber", 
  "location": {"city":"Gastuk", "country":"India"} },
                 
    { "id": 14, "followed":false,
   "Name": "Kasha Malasha",
   "status":"I good Lobber", 
  "location": {"city":"Gastuk", "country":"India"} },
                 
    { "id": 15, "followed":false,
   "Name": "Kasha Malasha",
   "status":"I good Lobber", 
  "location": {"city":"Gastuk", "country":"India"} },
                 
    { "id":16, "followed":false,
   "Name": "Kasha Malasha",
   "status":"I good Lobber", 
  "location": {"city":"Gastuk", "country":"India"} },
                 
    { "id": 17, "followed":false,
   "Name": "Kasha Malasha",
   "status":"I good Lobber", 
  "location": {"city":"Gastuk", "country":"India"} },
                 
   { "id": 18, "followed":false,
   "Name": "Kasha Malasha",
   "status":"I good Lobber", 
  "location": {"city":"Gastuk", "country":"India"} },
                 
    { "id": 19, "followed":false,
   "Name": "Kasha Malasha",
   "status":"fdgjfdgjer", 
  "location": {"city":"Gastuk", "country":"India"} },
                 
    { "id": 20, "followed":false,
   "Name": "Kasha Malasha",
   "status":"I good djdfgjfhker", 
  "location": {"city":"Gastuk", "country":"India"} },
                 
    { "id": 21, "followed":false,
   "Name": "Kasha Malasha",
   "status":"I good hfjdfjdgjber", 
  "location": {"city":"Gastuk", "country":"India"} },
                 
   { "id": 22, "followed":false,
   "Name": "Kasha Malasha",
   "status":"I good Ljhkhbber", 
  "location": {"city":"Gastuk", "country":"India"} },
              
    { "id": 23, "followed":false,
   "Name": "Kasha Malasha",
   "status":"I good gfder", 
  "location": {"city":"Gastuk", "country":"India"} },]}
